{
  "nodes":[
    {
      "id": 1001,
      "name": "Algiers",
      "lat": 36.7538,
      "lon": 3.0588
    },
    {
      "id": 1002,
      "name": "Oran",
      "lat": 35.7044415,
      "lon": -0.6502981
    },
    {
      "id": 1003,
      "name": "Constantine",
      "lat": 36.3641642,
      "lon": 6.6084281
    },
    {
      "id": 1004,
      "name": "Annaba",
      "lat": 36.8982165,
      "lon": 7.7549272
    },
    {
      "id": 1005,
      "name": "Blida",
      "lat": 36.4705658,
      "lon": 2.8274937
    },
    {
      "id": 1006,
      "name": "Batna",
      "lat": 35.3384291,
      "lon": 5.7315453
    },
    {
      "id": 1007,
      "name": "Tlemcen",
      "lat": 34.881789,
      "lon": -1.316699
    },
    {
      "id": 1008,
      "name": "Tizi Ouzou",
      "lat": 36.6816175,
      "lon": 4.2371860
    },
    {
      "id": 1009,
      "name": "Sétif",
      "lat": 36.1893494,
      "lon": 5.4046876
    },
    {
      "id": 1010,
      "name": "Biskra",
      "lat": 34.8508816,
      "lon": 5.729074
    },
    {
      "id": 1011,
      "name": "Sidi Bel Abbès",
      "lat": 35.2022,
      "lon": -0.6298
    },
    {
      "id": 1012,
      "name": "Skikda",
      "lat": 36.8801317,
      "lon": 6.9077363
    },
    {
      "id": 1013,
      "name": "Béjaïa",
      "lat": 36.7511783,
      "lon": 5.0643687
    },
    {
      "id": 1014,
      "name": "Béchar",
      "lat": 31.6232,
      "lon": -2.2160
    },
    {
      "id": 1015,
      "name": "Djelfa",
      "lat": 34.6720,
      "lon": 3.2505
    },
    {
      "id": 1016,
      "name": "Ouargla",
      "lat": 31.9527,
      "lon": 5.3330
    },
    {
      "id": 1017,
      "name": "Ghardaïa",
      "lat": 32.4902,
      "lon": 3.6738
    },
    {
      "id": 1018,
      "name": "Médéa",
      "lat": 36.2675,
      "lon": 2.7650
    },
    {
      "id": 1019,
      "name": "Tébessa",
      "lat": 35.4040,
      "lon": 8.1242
    },
    {
      "id": 1020,
      "name": "Mostaganem",
      "lat": 35.928808,
      "lon": 0.089978
    },
    {
      "id": 1021,
      "name": "Tipaza",
      "lat": 36.5890,
      "lon": 2.4445
    },
    {
      "id": 1022,
      "name": "Mascara",
      "lat": 35.3979,
      "lon": 0.1400
    },
    {
      "id": 1023,
      "name": "Relizane",
      "lat": 35.7373,
      "lon": 0.5559
    },
    {
      "id": 1024,
      "name": "Oum El Bouaghi",
      "lat": 35.8776,
      "lon": 7.1136
    },
    {
      "id": 1025,
      "name": "Illizi",
      "lat": 26.5060,
      "lon": 8.4800
    },
    {
      "id": 1026,
      "name": "Khenchela",
      "lat": 35.4317,
      "lon": 7.1430
    },
    {
      "id": 1027,
      "name": "Souk Ahras",
      "lat": 36.2864,
      "lon": 7.9515
    },
    {
      "id": 1028,
      "name": "Tiaret",
      "lat": 35.3700,
      "lon": 1.3200
    },
    {
      "id": 1029,
      "name": "Naama",
      "lat": 33.2673,
      "lon": -0.3124
    },
    {
      "id": 1030,
      "name": "Adrar",
      "lat": 27.8742,
      "lon": -0.2939
    },
    {
      "id": 1031,
      "name": "Laghouat",
      "lat": 33.8000,
      "lon": 2.8800
    },
    {
      "id": 1032,
      "name": "Tamanrasset",
      "lat": 22.7903,
      "lon": 5.5229
    },
    {
      "id": 1033,
      "name": "Mila",
      "lat": 36.4502,
      "lon": 6.2648
    },
    {
      "id": 1034,
      "name": "El Oued",
      "lat": 33.3680,
      "lon": 6.8670
    },
    {
      "id": 1035,
      "name": "Guelma",
      "lat": 36.4627,
      "lon": 7.4286
    },
    {
      "id": 1036,
      "name": "Tindouf",
      "lat": 27.6761,
      "lon": -8.1377
    },
    {
      "id": 1037,
      "name": "Bordj Bou Arreridj",
      "lat": 36.0730,
      "lon": 4.7631
    },
    {
      "id": 1038,
      "name": "El Bayadh",
      "lat": 33.6828,
      "lon": 1.0190
    },
    {
      "id": 1039,
      "name": "Aïn Defla",
      "lat": 36.2640,
      "lon": 1.9680
    },
    {
      "id": 1040,
      "name": "Tissemsilt",
      "lat": 35.6072,
      "lon": 1.8102
    },
    {
      "id": 1041,
      "name": "El Tarf",
      "lat": 36.7667,
      "lon": 8.3167
    },
    {
      "id": 1042,
      "name": "Chlef",
      "lat": 36.1647,
      "lon": 1.3317
    },
    {
      "id": 1043,
      "name": "Aïn Témouchent",
      "lat": 35.2995,
      "lon": -1.1397
    },
    {
      "id": 1044,
      "name": "Bordj Menaïel",
      "lat": 36.7432364,
      "lon": 3.7175665
    },
    {
      "id": 1045,
      "name": "M'sila",
      "lat": 35.7058,
      "lon": 4.5420
    },
    {
      "id": 1046,
      "name": "Ouled Djellal",
      "lat": 34.4333,
      "lon": 5.0667
    },
    {
      "id": 1047,
      "name": "Bou Saâda",
      "lat": 35.2133123,
      "lon": 4.1809702
    },
    {
      "id": 1048,
      "name": "Bordj El Kiffan",
      "lat": 36.747273,
      "lon": 3.1908953
    },
    {
      "id": 1049,
      "name": "Bir Mourad Raïs",
      "lat": 36.7393938,
      "lon": 3.0500748
    },
    {
      "id": 1050,
      "name": "El Biar",
      "lat": 36.7688818,
      "lon": 3.030651
    },
    {
      "id": 1051,
      "name": "Bab Ezzouar",
      "lat": 36.7220068,
      "lon": 3.1856291
    },
    {
      "id": 1052,
      "name": "Beni Messous",
      "lat": 36.7800963,
      "lon": 2.974557
    },
    {
      "id": 1053,
      "name": "Chéraga",
      "lat": 36.7669269,
      "lon": 2.9602571
    },
    {
      "id": 1054,
      "name": "Dely Brahim",
      "lat": 36.7516098,
      "lon": 2.9825732
    },
    {
      "id": 1055,
      "name": "Draria",
      "lat": 36.7137875,
      "lon": 3.0015961
    },
    {
      "id": 1056,
      "name": "Saoula",
      "lat": 36.7027016,
      "lon": 3.0238994
    },
    {
      "id": 1057,
      "name": "Birkhadem",
      "lat": 36.716075,
      "lon": 3.0497361
    },
    {
      "id": 1058,
      "name": "Kouba",
      "lat": 36.7323557,
      "lon": 3.0874783
    },
    {
      "id": 1059,
      "name": "Ain Naadja",
      "lat": 36.7024722,
      "lon": 3.0801951
    },
    {
      "id": 1060,
      "name": "El Harrach",
      "lat": 36.7207974,
      "lon": 3.1373893
    },
    {
      "id": 1061,
      "name": "Bachdjarrah",
      "lat": 36.7200591,
      "lon": 3.1126365
    }
  ]
}